City_ID,City,Lat,Lng,Max Temp,Humidity,Cloudiness,Wind Speed,Country,Date
0,talcahuano,-36.7167,-73.1167,10.82,93,75,1.54,CL,1690325232
1,poyarkovo,49.6,128.6833,22.03,83,90,2.95,RU,1690325394
2,waitangi,-43.9535,-176.5597,9.34,98,100,0.89,NZ,1690325395
3,la tuque,47.4334,-72.7824,24.14,46,86,2.57,CA,1690325395
4,port-aux-francais,-49.35,70.2167,3.66,81,97,9.09,TF,1690325395
5,minas de marcona,-15.2119,-75.1103,13.3,82,13,5.8,PE,1690325395
6,oriximina,-1.7656,-55.8661,28.09,48,50,1.33,BR,1690325133
7,albany,42.6001,-73.9662,25.36,81,96,0.45,US,1690325396
8,olonkinbyen,70.9221,-8.7187,5.49,84,100,3.83,SJ,1690325396
9,badger,64.8,-147.5333,27.3,54,75,5.14,US,1690325131
10,kodiak,57.79,-152.4072,15.73,72,0,3.09,US,1690325396
11,edinburgh of the seven seas,-37.0676,-12.3116,11.48,63,100,7.94,SH,1690325113
12,kill devil hills,36.0307,-75.676,29.99,72,0,2.57,US,1690325348
13,iqaluit,63.7506,-68.5145,6.85,81,100,2.06,CA,1690325397
14,yellowknife,62.456,-114.3525,25.31,22,75,10.29,CA,1690325398
15,aasiaat,68.7098,-52.8699,3.61,92,86,2.37,GL,1690325398
16,thompson,55.7435,-97.8558,23.09,40,40,4.63,CA,1690325290
17,mthatha,-31.5889,28.7844,6.31,93,100,1.54,ZA,1690325398
18,sibolga,1.7427,98.7792,24.35,79,100,1.6,ID,1690325315
19,myeik,12.4333,98.6,25.62,90,98,3.19,MM,1690325399
20,puerto ayora,-0.7393,-90.3518,29.98,90,51,3.58,EC,1690325399
21,ushuaia,-54.8,-68.3,0.81,60,20,3.09,AR,1690325400
22,blackmans bay,-43.0167,147.3167,13.16,68,100,5.26,AU,1690325298
23,erenhot,43.6475,111.9767,23.4,56,95,8.29,CN,1690325401
24,mont-dore,-22.2833,166.5833,21.67,99,85,6.39,NC,1690325401
25,kambove,-10.8764,26.5969,15.94,43,20,2.0,CD,1690325402
26,hasaki,35.7333,140.8333,29.22,80,79,3.54,JP,1690325403
27,grytviken,-54.2811,-36.5092,-3.33,81,80,4.74,GS,1690325409
28,cabo san lucas,22.8909,-109.9124,34.78,51,75,3.6,MX,1690325187
29,fale old settlement,-9.3852,-171.2468,28.61,76,8,8.52,TK,1690325412
30,muisne,0.6,-80.0333,25.56,84,93,3.64,EC,1690325413
31,carnarvon,-24.8667,113.6333,16.65,57,34,6.76,AU,1690325417
32,walvis bay,-22.9575,14.5053,11.72,93,66,1.54,NA,1690325347
33,ilulissat,69.2167,-51.1,3.01,100,100,2.06,GL,1690325132
34,heunghae,36.1125,129.3522,26.67,78,11,1.76,KR,1690325419
35,college,64.8569,-147.8028,27.34,58,75,5.14,US,1690325419
36,puerto natales,-51.7236,-72.4875,-2.34,88,23,2.76,CL,1690325419
37,bethel,41.3712,-73.414,21.2,86,40,2.06,US,1690325124
38,chonchi,-42.6128,-73.8092,8.56,95,80,1.2,CL,1690325232
39,ust-nera,64.5667,143.2,17.46,65,73,1.41,RU,1690325421
40,kuta,-8.7233,115.1723,25.0,83,40,6.71,ID,1690325421
41,heroica guaymas,27.9333,-110.9,38.27,57,0,5.81,MX,1690325422
42,tegueste,28.5167,-16.3167,19.81,89,40,7.6,ES,1690325422
43,alofi,-19.0595,-169.9187,23.94,64,36,2.06,NU,1690325422
44,port lincoln,-34.7333,135.8667,11.11,70,0,3.51,AU,1690325162
45,lihue,21.9789,-159.3672,30.77,65,20,6.69,US,1690325307
46,lethem,3.3803,-59.7968,26.03,83,71,2.13,GY,1690325424
47,adamstown,-25.066,-130.1015,22.76,89,100,16.49,PN,1690325425
48,vilcun,-38.65,-72.2333,8.41,96,100,1.89,CL,1690325231
49,al ghayzah,16.2079,52.176,25.29,87,99,5.62,YE,1690325428
50,castillos,-34.1667,-53.8333,11.97,93,100,3.24,UY,1690325368
51,guangyuan,32.442,105.823,23.79,93,92,1.62,CN,1690325429
52,velikiye luki,56.34,30.5452,15.1,96,58,1.97,RU,1690325430
53,tiksi,71.6872,128.8694,5.63,73,71,1.7,RU,1690325284
54,kristiansund,63.1115,7.732,14.36,94,100,1.03,NO,1690325359
55,kone,-21.0595,164.8658,22.52,49,28,4.62,NC,1690325431
56,port elizabeth,-33.918,25.5701,10.16,66,0,3.09,ZA,1690325431
57,trairi,-3.2778,-39.2689,25.67,80,8,5.21,BR,1690325252
58,nahavand,34.1885,48.377,22.47,15,15,1.74,IR,1690325431
59,baki,-7.6128,110.7839,21.26,90,72,2.91,ID,1690325432
60,ola,59.5833,151.2833,14.72,83,46,2.22,RU,1690325432
61,bilibino,68.0546,166.4372,10.93,94,100,0.95,RU,1690325432
62,angaur state,6.906,134.13,26.03,84,100,2.44,PW,1690325433
63,stanley,54.868,-1.6985,12.06,93,75,1.03,GB,1690325434
64,weno,7.4515,151.8468,26.97,89,100,2.06,FM,1690325434
65,papatowai,-46.5619,169.4708,6.68,79,55,5.07,NZ,1690325434
66,laascaanood,8.4774,47.3597,23.56,58,14,15.13,SO,1690325435
67,telgte,51.9833,7.7833,13.32,79,20,2.06,DE,1690325435
68,saint-pierre,-21.3393,55.4781,19.82,77,0,3.6,RE,1690325435
69,longyearbyen,78.2186,15.6401,10.91,71,40,2.06,SJ,1690325435
70,vila franca do campo,37.7167,-25.4333,21.23,83,27,1.09,PT,1690325365
71,abalak,58.1286,68.5944,12.95,95,33,2.43,RU,1690325436
72,apiai,-24.5094,-48.8425,14.74,65,22,1.43,BR,1690325436
73,afaahiti,-17.75,-149.2833,27.93,81,0,6.88,PF,1690325286
74,emerald,-23.5333,148.1667,14.63,69,0,7.97,AU,1690325351
75,avarua,-21.2078,-159.775,24.03,60,75,3.09,CK,1690325437
76,punta arenas,-53.15,-70.9167,0.1,81,87,4.96,CL,1690325431
77,oguz,41.0708,47.4583,18.91,90,100,1.11,AZ,1690325437
78,klyuchi,52.2667,79.1667,17.34,60,1,2.49,RU,1690325438
79,saipan,15.1355,145.701,29.39,100,40,5.14,MP,1690325438
80,bredasdorp,-34.5322,20.0403,7.39,74,1,2.26,ZA,1690325438
81,anadyr,64.75,177.4833,13.28,87,75,3.58,RU,1690325439
82,conception bay south,47.4999,-52.9981,20.53,86,78,1.69,CA,1690325439
83,hemmoor,53.7,9.1167,14.07,89,41,3.57,DE,1690325439
84,dharampur,20.5333,73.1833,24.95,95,100,3.25,IN,1690325439
85,ripky,51.801,31.0838,21.73,81,80,3.92,UA,1690325440
86,dhuusamarreeb,5.535,46.3861,23.32,72,86,10.26,SO,1690325440
87,patong,7.8961,98.2966,30.57,71,100,5.8,TH,1690325440
88,salekhard,66.53,66.6019,15.87,94,100,4.38,RU,1690325440
89,hermanus,-34.4187,19.2345,8.78,61,31,2.48,ZA,1690325441
90,zaragoza,41.6561,-0.8773,19.25,53,0,7.72,ES,1690325441
91,talnakh,69.4865,88.3972,15.67,62,0,0.25,RU,1690325441
92,qamdo,31.1667,97.2333,4.21,89,100,0.36,CN,1690325442
93,port mathurin,-19.6833,63.4167,23.28,77,24,6.82,MU,1690325442
94,remire-montjoly,4.9167,-52.2667,27.02,89,59,1.03,GF,1690325364
95,kokopo,-4.352,152.2633,27.36,72,98,6.41,PG,1690325442
96,bontang,0.1333,117.5,24.82,90,13,3.52,ID,1690325443
97,enewetak,11.3474,162.3373,28.53,78,65,7.07,MH,1690325296
98,susuman,62.7833,148.1667,14.86,79,100,1.24,RU,1690325443
99,vernon,50.2581,-119.2691,24.96,33,79,2.68,CA,1690325287
100,chernyshevskiy,63.0128,112.4714,18.16,90,59,2.48,RU,1690325444
101,mount gambier,-37.8333,140.7667,6.95,89,100,2.24,AU,1690325178
102,corn island,12.1694,-83.0418,27.88,83,100,6.73,NI,1690325444
103,wailea,19.8858,-155.123,28.02,85,100,3.6,US,1690325445
104,westport,41.1415,-73.3579,22.82,84,100,3.6,US,1690325445
105,luderitz,-26.6481,15.1594,12.16,92,44,1.92,NA,1690325445
106,suva,-18.1416,178.4415,23.71,78,75,2.06,FJ,1690325283
107,hamilton,39.1834,-84.5333,31.66,55,0,3.09,US,1690325445
108,mastic beach,40.7668,-72.8521,23.94,93,100,4.12,US,1690325446
109,polyarnyy,69.1989,33.4478,9.83,95,81,2.48,RU,1690325446
110,gadzhiyevo,69.2551,33.3362,9.49,96,83,2.56,RU,1690325446
111,kruisfontein,-34.0033,24.7314,10.93,32,0,2.52,ZA,1690325187
112,qaqortoq,60.7167,-46.0333,6.14,89,81,0.25,GL,1690325197
113,igarka,67.4667,86.5833,17.17,75,15,3.11,RU,1690325448
114,broken hill,-31.95,141.4333,10.08,58,0,2.82,AU,1690325448
115,cobh,51.8572,-8.2992,12.58,94,20,2.06,IE,1690325449
116,dakhla,23.6848,-15.958,20.13,88,4,10.17,EH,1690325449
117,tabalosos,-6.35,-76.6833,24.11,73,87,0.84,PE,1690325449
118,khandyga,62.6667,135.6,19.71,82,36,1.18,RU,1690325450
119,ribeira grande,38.5167,-28.7,20.99,81,7,2.68,PT,1690325450
120,tura,25.5198,90.2201,23.39,95,96,2.85,IN,1690325450
121,libreville,0.3925,9.4537,24.24,82,70,3.63,GA,1690325450
122,acarau,-2.8856,-40.12,25.96,77,6,7.35,BR,1690325218
123,kargasok,59.0556,80.8572,13.99,95,4,2.59,RU,1690325451
124,hawaiian paradise park,19.5933,-154.9731,27.8,80,100,3.6,US,1690325335
125,taoudenni,22.6783,-3.9836,40.77,9,77,3.57,ML,1690325289
126,glenfield park,-35.1372,147.334,6.31,79,8,1.35,AU,1690325452
127,nar'yan-mar,67.6713,53.087,13.6,88,16,2.74,RU,1690325452
128,axim,4.8699,-2.2405,24.45,92,97,3.23,GH,1690325452
129,debre birhan,9.6833,39.5333,12.19,79,100,1.59,ET,1690325453
130,ylitornio,66.3089,23.6773,10.83,96,84,1.27,FI,1690325453
131,darwin,-12.4611,130.8418,16.99,46,0,5.14,AU,1690325453
132,mount isa,-20.7333,139.5,17.87,72,100,4.63,AU,1690325213
133,ambon,-3.6954,128.1814,27.91,100,40,2.57,ID,1690325454
134,kourou,5.1552,-52.6478,27.03,84,50,3.38,GF,1690325336
135,vilyuysk,63.7553,121.6247,17.91,48,34,2.56,RU,1690325454
136,alice springs,-23.7,133.8833,5.75,81,13,2.06,AU,1690325352
137,la'ie,21.6477,-157.9253,31.98,70,51,6.79,US,1690325455
138,bukama,-9.2,25.85,22.61,35,6,0.92,CD,1690325207
139,rio grande,-32.035,-52.0986,16.06,90,100,6.97,BR,1690325456
140,invercargill,-46.4,168.35,7.19,79,72,5.2,NZ,1690325194
141,guerrero negro,27.9769,-114.0611,25.85,55,26,7.3,MX,1690325177
142,amahai,-3.3333,128.9167,26.67,84,82,2.9,ID,1690325457
143,fort mcmurray,56.7268,-111.381,19.77,82,75,2.06,CA,1690325385
144,bonthe,7.5264,-12.505,24.58,90,100,1.77,SL,1690325458
145,illizi,26.4833,8.4667,33.89,12,1,4.72,DZ,1690325458
146,puerto deseado,-47.7503,-65.8938,1.57,96,100,12.27,AR,1690325458
147,kirakira,-10.4544,161.9205,27.15,85,85,4.81,SB,1690325458
148,verdal,63.7933,11.4817,14.02,83,100,1.74,NO,1690325458
149,waddan,29.1614,16.139,33.12,15,0,4.87,LY,1690325459
150,jamestown,42.097,-79.2353,25.25,75,20,1.54,US,1690325459
151,isafjordur,66.0755,-23.124,7.23,81,96,3.51,IS,1690325459
152,borogontsy,62.6683,131.1683,17.32,56,49,2.44,RU,1690325460
153,tofol,5.3248,163.0078,30.88,70,75,1.54,FM,1690325460
154,nagqu,31.5,92.0,5.58,94,100,1.47,CN,1690325190
155,kayes,14.0,-11.0,24.76,91,100,5.64,ML,1690325460
156,scarborough,54.2797,-0.4044,12.66,90,99,1.79,GB,1690325430
157,udachny,66.4167,112.4,16.36,76,100,3.17,RU,1690325461
158,dudinka,69.4058,86.1778,15.9,61,0,5.15,RU,1690325461
159,iskateley,67.6803,53.1512,13.6,87,19,2.8,RU,1690325349
160,ladario,-19.0047,-57.6017,27.05,33,3,0.54,BR,1690325461
161,haiku-pauwela,20.9219,-156.3051,29.54,65,20,12.35,US,1690325462
162,sitka,57.0531,-135.33,16.94,72,100,3.6,US,1690325462
163,askoy,60.4092,5.226,13.16,50,75,1.03,NO,1690325462
164,narasannapeta,18.4167,84.05,27.23,86,100,4.14,IN,1690325462
165,cao bang,22.6667,106.25,24.12,96,91,0.85,VN,1690325463
166,arvayheer,46.2639,102.775,12.47,66,100,3.0,MN,1690325463
167,olyokminsk,60.3736,120.4264,21.29,69,8,1.54,RU,1690325463
168,sultanah,24.4926,39.5857,36.25,9,0,2.06,SA,1690325464
169,tomatlan,19.9333,-105.25,30.74,62,95,2.69,MX,1690325464
170,mugia,43.1041,-9.2179,17.17,82,87,4.43,ES,1690325464
171,georgetown,5.4112,100.3354,26.96,92,20,1.03,MY,1690325207
172,kolonia,50.9333,6.95,14.34,79,0,1.54,DE,1690325465
173,swan hill,-35.3378,143.5544,8.67,79,0,0.8,AU,1690325465
174,shatsk,54.0258,41.7119,17.64,89,100,2.66,RU,1690325465
175,saint-philippe,-21.3585,55.7679,19.77,77,42,1.88,RE,1690325321
176,namibe,-15.1961,12.1522,16.09,85,91,4.31,AO,1690325466
177,karor,31.2274,70.9492,31.36,61,27,1.65,PK,1690325466
178,limoux,42.9167,2.1667,15.84,61,95,4.4,FR,1690325466
179,lautoka,-17.6167,177.4667,22.92,83,75,1.54,FJ,1690325466
180,usogorsk,63.4106,48.6872,12.03,97,94,1.08,RU,1690325467
181,rome,34.257,-85.1647,34.61,56,0,4.63,US,1690325419
182,harstad,68.799,16.5293,16.0,91,86,2.24,NO,1690325467
183,piedmont,37.8244,-122.2316,36.16,64,20,6.17,US,1690325468
184,port alfred,-33.5906,26.891,15.19,53,100,3.45,ZA,1690325468
185,irshava,48.3167,23.0385,17.84,90,35,1.53,UA,1690325468
186,west island,-12.1568,96.8225,24.99,69,100,9.77,CC,1690325469
187,nova sintra,14.8667,-24.7167,22.37,85,40,4.32,CV,1690325469
188,margaret river,-33.95,115.0667,11.78,80,100,8.64,AU,1690325469
189,keelung,25.1283,121.7419,29.49,90,99,10.7,TW,1690325469
190,uturoa,-16.7333,-151.4333,26.81,80,8,5.96,PF,1690325471
191,chibougamau,49.9168,-74.3659,22.79,43,40,3.39,CA,1690325196
192,vila velha,-20.3297,-40.2925,20.97,97,100,2.57,BR,1690325197
193,newman,37.3138,-121.0208,36.13,8,1,1.38,US,1690325308
194,urzhar,47.093,81.6294,22.43,38,49,3.74,KZ,1690325472
195,la passe,45.5549,-0.8967,17.21,75,87,4.2,FR,1690325205
196,noumea,-22.2763,166.4572,21.67,99,92,7.26,NC,1690325437
197,inhambane,-23.865,35.3833,17.06,72,5,2.36,MZ,1690325473
198,moyynkum,44.2914,72.9469,25.92,22,0,4.82,KZ,1690325473
199,guankou,28.15,113.6333,24.89,90,100,1.29,CN,1690325473
200,shihezi,44.3,86.0333,27.09,26,13,2.45,CN,1690325474
201,santa terezinha,-29.9002,-50.0904,17.18,96,95,1.0,BR,1690325347
202,mlangali,-9.7833,34.5167,10.83,70,7,2.14,TZ,1690325474
203,rosetta,31.4044,30.4164,27.33,83,0,4.75,EG,1690325475
204,marabba,12.35,32.1833,28.47,60,100,2.27,SD,1690325475
205,whitehorse,60.7161,-135.0538,21.68,52,75,2.06,CA,1690325475
206,boma,7.0805,-2.1697,22.39,99,64,1.05,GH,1690325476
207,sumbawa besar,-8.5,117.4333,21.35,89,7,2.29,ID,1690325476
208,mata-utu,-13.2816,-176.1745,26.67,76,100,6.72,WF,1690325261
209,mapimi,25.8167,-103.85,32.26,24,89,3.46,MX,1690325481
210,san patricio,28.017,-97.5169,36.4,42,11,7.54,US,1690325482
211,gamba,-2.65,10.0,20.99,94,7,1.85,GA,1690325345
212,lata,40.1629,-8.3327,12.69,95,0,0.78,PT,1690325482
213,celestun,20.8667,-90.4,29.73,72,51,8.77,MX,1690325483
214,ulanhot,46.0833,122.0833,23.44,72,58,2.26,CN,1690325483
215,algona,43.07,-94.233,30.07,79,20,4.63,US,1690325483
216,mozarlandia,-14.7447,-50.5706,27.51,30,65,0.44,BR,1690325483
217,cabo,-8.2833,-35.0333,24.96,88,69,2.55,BR,1690325484
218,puerto armuelles,8.2833,-82.8667,28.99,70,99,1.34,PA,1690325331
219,san antonio de pale,-1.4014,5.6325,22.71,88,40,4.8,GQ,1690325484
220,preobrazheniye,42.9019,133.9064,23.9,75,45,3.63,RU,1690325484
221,langres,47.8333,5.3333,11.22,86,65,1.62,FR,1690325485
222,worland,44.0169,-107.9554,36.49,19,0,2.57,US,1690325485
223,tazovsky,67.4667,78.7,12.28,77,32,4.32,RU,1690325281
224,flying fish cove,-10.4217,105.6791,23.82,94,100,3.6,CX,1690325485
225,ulsteinvik,62.3432,5.8487,16.53,91,99,3.13,NO,1690325445
226,akrehamn,59.2667,5.1833,13.14,88,100,13.89,NO,1690325360
227,san borja,-14.8167,-66.85,24.18,65,23,0.66,BO,1690325486
228,baiti,13.745,-14.7482,27.33,80,100,3.24,SN,1690325487
229,san jose acatempa,14.2653,-90.1269,23.02,70,93,2.19,GT,1690325487
230,tarawa,1.419,172.984,26.05,94,100,1.03,KI,1690325487
231,palangkaraya,-2.2,113.8333,22.44,93,99,0.77,ID,1690325488
232,kiunga,-6.1219,141.2906,23.4,84,72,2.11,PG,1690325469
233,praia da vitoria,38.7333,-27.0667,22.14,88,40,4.33,PT,1690325488
234,belmonte,-15.8631,-38.8828,22.21,89,66,3.31,BR,1690325489
235,laojunmiao,39.8333,97.7333,21.04,25,83,1.63,CN,1690325489
236,jiazi,22.8779,116.067,28.07,79,94,2.24,CN,1690325489
237,pizarro,4.9533,-77.366,26.2,87,100,3.75,CO,1690325490
238,kailua-kona,19.6406,-155.9956,29.17,82,40,4.12,US,1690325490
239,crane,31.3974,-102.3501,36.81,18,34,7.38,US,1690325490
240,mahalapye,-23.1041,26.8142,12.57,80,54,4.8,BW,1690325490
241,abakaliki,6.3163,8.1169,24.1,94,98,2.75,NG,1690325491
242,gorom-gorom,14.4439,-0.2361,33.56,41,10,2.04,BF,1690325491
243,tongliao,43.6125,122.2653,24.84,75,2,5.6,CN,1690325319
244,tamanrasset,22.785,5.5228,28.95,12,0,2.57,DZ,1690325491
245,lompoc,34.6391,-120.4579,38.08,56,20,3.6,US,1690325492
246,codrington,-38.2667,141.9667,7.37,89,100,3.21,AU,1690325492
247,saalfelden am steinernen meer,47.4268,12.848,13.52,61,100,1.21,AT,1690325492
248,khagaria,25.5,86.4833,28.92,78,93,2.67,IN,1690325493
249,shingu,33.7333,135.9833,28.94,70,0,0.4,JP,1690325380
250,ormara,25.2088,64.6357,28.45,84,97,1.99,PK,1690325493
251,korablino,53.9164,40.0133,17.8,84,100,3.29,RU,1690325494
252,general acha,-37.377,-64.6043,9.3,67,41,4.38,AR,1690325495
253,manicore,-5.8092,-61.3003,31.97,55,0,0.0,BR,1690325495
254,ilhabela,-23.7781,-45.3581,21.03,82,21,1.7,BR,1690325495
255,sittwe,20.15,92.9,26.75,87,67,5.96,MM,1690325496
256,kununurra,-15.7667,128.7333,11.99,76,32,0.51,AU,1690325496
257,atafu village,-8.5421,-172.5159,29.09,72,10,8.79,TK,1690325301
258,east london,-33.0153,27.9116,14.85,33,100,2.5,ZA,1690325496
259,forio,40.7342,13.8646,27.85,67,0,8.05,IT,1690325497
260,kuanda,56.3161,116.0806,20.85,67,11,0.24,RU,1690325497
261,jiangyou,31.7667,104.7167,23.71,89,96,2.09,CN,1690325497
262,sorochinsk,52.4338,53.1583,18.37,64,21,1.8,RU,1690325497
263,karaisali,37.2567,35.0589,24.37,31,0,3.25,TR,1690325498
264,tazacorte,28.629,-17.9293,23.54,77,0,5.66,ES,1690325498
265,eydhafushi,5.1033,73.0708,27.93,76,100,3.98,MV,1690325498
266,marhaura,25.9667,84.8667,30.96,74,99,4.08,IN,1690325498
267,port macquarie,-31.4333,152.9167,13.27,70,36,3.02,AU,1690325499
268,new norfolk,-42.7826,147.0587,13.82,72,100,4.37,AU,1690325499
269,vorgashor,67.5833,63.95,15.53,86,99,3.3,RU,1690325494
270,meridian,43.6121,-116.3915,34.1,23,0,2.57,US,1690325499
271,okha,53.5739,142.9478,16.13,86,97,5.66,RU,1690325500
272,muynoq,43.7683,59.0214,27.65,52,69,6.38,UZ,1690325500
273,mongoumba,3.6415,18.5936,21.69,97,99,1.13,CF,1690325501
274,san pedro pochutla,15.7333,-96.4667,30.75,61,65,2.69,MX,1690325501
275,rongelap,11.1635,166.8941,28.6,77,93,7.66,MH,1690325235
276,bucerias,20.75,-105.3333,28.88,83,98,1.38,MX,1690325501
277,nili,33.7218,66.1302,21.77,41,60,0.45,AF,1690325502
278,kormend,47.011,16.606,16.29,95,98,2.46,HU,1690325502
279,luganville,-15.5333,167.1667,23.3,83,100,6.62,VU,1690325502
280,onguday,50.75,86.15,11.58,95,7,0.74,RU,1690325503
281,kingston,17.997,-76.7936,31.53,73,20,10.8,JM,1690325427
282,queenstown,-31.8976,26.8753,9.74,18,100,2.16,ZA,1690325503
283,turkmenbasy,40.0222,52.9552,23.43,73,0,6.17,TM,1690325504
284,bubaque,11.2833,-15.8333,26.67,82,100,3.23,GW,1690325504
285,magadan,59.5667,150.8,14.95,83,54,2.25,RU,1690325504
286,kasongo,-4.45,26.6667,24.1,32,1,1.72,CD,1690325504
287,howrah,22.5892,88.3103,28.0,89,40,2.57,IN,1690325504
288,enugu,6.4402,7.4943,23.24,95,100,1.95,NG,1690325505
289,wailua homesteads,22.0669,-159.378,30.44,73,20,6.69,US,1690325505
290,ust'-ilimsk,58.0006,102.6619,18.44,75,100,1.35,RU,1690325505
291,geraldton,-28.7667,114.6,14.23,72,30,5.66,AU,1690325506
292,severo-yeniseyskiy,60.3725,93.0408,15.49,94,76,1.05,RU,1690325506
293,sao felix do xingu,-6.6447,-51.995,25.66,43,4,0.57,BR,1690325506
294,dalian,38.9122,121.6022,25.96,89,0,2.0,CN,1690325507
295,reichertshofen,48.6577,11.4661,13.97,88,75,2.57,DE,1690325507
296,keflavik,64.0049,-22.5624,13.95,76,100,3.6,IS,1690325507
297,masuguru,-11.3667,38.4167,20.34,73,45,1.76,TZ,1690325507
298,saint-denis,48.9167,2.3333,15.62,80,0,2.57,FR,1690325508
299,ouadda,8.0777,22.4007,20.77,99,100,1.49,CF,1690325508
300,sao miguel do araguaia,-13.275,-50.1628,26.65,31,0,1.53,BR,1690325508
301,labrador city,52.9463,-66.9114,15.95,94,75,1.54,CA,1690325508
302,deir ez-zor,35.3359,40.1408,33.2,22,0,10.47,SY,1690325509
303,bahir dar,11.5936,37.3908,16.66,95,100,0.44,ET,1690325509
304,massakory,12.996,15.7293,31.15,40,94,3.46,TD,1690325509
305,geneina,13.45,22.45,25.86,73,98,7.04,SD,1690325509
306,nyurba,63.2842,118.3319,18.74,57,33,3.44,RU,1690325510
307,kapuskasing,49.4169,-82.4331,27.05,41,40,6.69,CA,1690325510
308,itoman,26.1247,127.6694,29.01,87,75,5.66,JP,1690325510
309,puerto baquerizo moreno,-0.9,-89.6,26.55,78,20,4.63,EC,1690325510
310,quellon,-43.1167,-73.6167,9.14,87,100,1.03,CL,1690325395
311,pangai,-19.8,-174.35,24.06,69,75,3.09,TO,1690325511
312,bol,13.4586,14.7147,29.5,55,92,3.53,TD,1690325511
313,ancud,-41.8697,-73.8203,8.14,87,5,4.81,CL,1690325511
314,mount kisco,41.2043,-73.7271,22.34,91,75,3.09,US,1690325512
315,aykhal,66.0,111.5,17.66,65,100,4.08,RU,1690325512
316,tocopilla,-22.092,-70.1979,16.98,82,18,4.11,CL,1690325512
317,porbandar,21.6422,69.6093,27.35,86,71,7.62,IN,1690325513
318,lerwick,60.1545,-1.1494,11.0,75,100,9.21,GB,1690325513
319,wagar,16.1525,36.2032,30.26,56,86,12.59,SD,1690325446
320,san bernardo del viento,9.3533,-75.9524,28.52,82,95,4.51,CO,1690325513
321,leava,-14.3,-178.1667,26.23,76,100,7.92,WF,1690325514
322,labytnangi,66.6572,66.4183,16.19,93,100,4.51,RU,1690325514
323,kani keli,-12.9536,45.1033,24.59,76,39,6.94,YT,1690325514
324,lazaro cardenas,17.9583,-102.2,30.08,69,97,3.81,MX,1690325514
325,pisco,-13.7,-76.2167,21.03,68,0,7.72,PE,1690325515
326,lucapa,-8.4192,20.7447,22.03,33,21,1.32,AO,1690325515
327,international falls,48.6011,-93.411,26.75,70,0,2.57,US,1690325515
328,klaksvik,62.2266,-6.589,9.51,81,100,5.55,FO,1690325515
329,at taj,24.2049,23.2857,29.92,15,2,4.9,LY,1690325516
330,rio san juan,19.6439,-70.0763,29.53,82,82,5.19,DO,1690325516
331,sorong,-0.8833,131.25,24.32,89,100,5.12,ID,1690325516
332,ishigaki,24.3448,124.1572,29.07,84,20,9.26,JP,1690325516
333,nuku'alofa,-21.1333,-175.2,24.19,60,40,2.57,TO,1690325517
334,al kiswah,33.3572,36.2428,24.27,37,0,0.97,SY,1690325517
335,berezovyy,51.6667,135.7,21.97,79,96,0.84,RU,1690325517
336,coquimbo,-29.9533,-71.3436,15.85,82,0,3.6,CL,1690325517
337,qulsary,46.9531,54.0198,21.53,69,3,5.59,KZ,1690325518
338,mejit,10.2753,170.8646,28.28,81,60,8.6,MH,1690325518
339,utrik,11.2278,169.8474,28.37,80,74,7.64,MH,1690325298
340,kukawa,12.9234,13.5606,29.86,49,81,3.29,NG,1690325520
341,constantia,44.1833,28.65,24.38,70,77,8.35,RO,1690325520
342,nova vicosa,-17.8919,-39.3719,21.74,90,54,4.59,BR,1690325520
343,krasnyy kut,50.95,46.9667,19.91,66,47,0.6,RU,1690325520
344,petropavlovsk-kamchatsky,53.0452,158.6483,19.33,77,20,2.0,RU,1690325521
345,northam,51.0333,-4.2167,12.44,90,14,1.58,GB,1690325521
346,geiselhoring,48.8333,12.3833,15.24,84,86,5.02,DE,1690325521
347,andijon,40.7821,72.3442,25.6,25,3,2.4,UZ,1690325521
348,pacific grove,36.6177,-121.9166,30.3,78,0,3.09,US,1690325460
349,kavaratti,10.5669,72.642,28.11,73,98,7.54,IN,1690325523
350,antsiranana,-12.2787,49.2917,21.64,84,70,5.5,MG,1690325523
351,swakopmund,-22.6833,14.5333,11.66,86,75,0.45,NA,1690325523
352,henderson,36.0397,-114.9819,44.9,14,0,3.6,US,1690325508
353,khromtau,50.2503,58.4347,16.63,93,100,6.04,KZ,1690325524
354,el calafate,-50.3408,-72.2768,-5.28,61,15,1.3,AR,1690325470
355,naze,28.3667,129.4833,27.51,83,59,5.56,JP,1690325302
356,okhotsk,59.3833,143.3,16.15,79,100,3.33,RU,1690325525
357,amlapura,-8.45,115.6167,23.61,87,66,4.43,ID,1690325525
358,porto novo,6.4965,2.6036,24.9,91,62,2.58,BJ,1690325453
359,holualoa,19.6228,-155.9522,27.1,82,40,4.12,US,1690325526
360,xylokastro,38.0776,22.6317,30.53,33,0,2.26,GR,1690325526
361,pangkalanbuun,-2.6833,111.6167,22.8,96,100,0.75,ID,1690325526
362,nijar,36.9665,-2.206,23.14,73,0,1.54,ES,1690325527
363,ciudad bolivar,8.1222,-63.5497,29.29,67,81,0.74,VE,1690325527
364,hadibu,12.65,54.0333,24.88,79,68,10.72,YE,1690325527
365,motril,36.7507,-3.5179,30.15,30,0,1.6,ES,1690325528
366,chifeng,42.2683,118.9636,24.43,62,21,1.98,CN,1690325528
367,piti village,13.4626,144.6933,29.03,89,75,3.6,GU,1690325528
368,imbituba,-28.24,-48.6703,17.81,91,47,2.87,BR,1690325529
369,egilsstadir,65.2653,-14.3948,5.95,87,75,3.6,IS,1690325529
370,mana,5.6592,-53.7767,26.21,86,34,4.16,GF,1690325529
371,kitimat,54.0524,-128.6534,15.51,70,100,3.58,CA,1690325248
372,vilyuchinsk,52.9306,158.4028,20.15,70,45,0.51,RU,1690325530
373,alo,7.4178,6.7371,24.0,96,92,1.49,NG,1690325246
374,salinopolis,-0.6136,-47.3561,26.13,84,94,5.05,BR,1690325531
375,lebu,-37.6167,-73.65,10.38,83,83,2.55,CL,1690325531
376,acapulco de juarez,16.8634,-99.8901,31.39,61,47,3.81,MX,1690325523
377,turan,16.0678,108.2208,25.99,89,20,2.06,VN,1690325531
378,butte,39.6499,-121.5677,36.83,26,0,2.57,US,1690325532
379,fort portal,0.6617,30.2748,18.99,63,70,0.61,UG,1690325532
380,noshiro,40.2039,140.0242,26.47,84,24,3.49,JP,1690325532
381,yuzhno-kurilsk,44.0306,145.8556,20.63,90,43,1.67,RU,1690325533
382,toccoa,34.5773,-83.3324,30.96,72,0,2.57,US,1690325432
383,dapa,9.7594,126.0531,28.17,72,99,2.53,PH,1690325533
384,patacamaya,-17.2333,-67.9167,9.62,16,0,5.18,BO,1690325534
385,zaraza,9.3503,-65.3245,25.28,91,99,0.36,VE,1690325534
386,fisterra,42.9049,-9.2629,17.08,81,51,5.1,ES,1690325534
387,obubra,6.0752,8.329,23.66,95,100,2.18,NG,1690325534
388,sodra sandby,56.5667,16.6167,16.05,81,9,4.07,SE,1690325535
389,karratha,-20.7377,116.8463,17.62,77,14,5.46,AU,1690325535
390,colonie,42.7179,-73.8335,26.19,75,100,4.63,US,1690325535
391,fuyang,32.9,115.8167,26.93,86,66,2.55,CN,1690325536
392,tromso,69.6496,18.957,13.01,82,100,1.03,NO,1690325536
393,konarka,19.9,86.1167,26.22,82,61,8.17,IN,1690325536
394,dryden,49.7833,-92.7503,20.16,77,100,5.14,CA,1690325536
395,basco,20.4487,121.9702,28.56,88,100,23.77,PH,1690325395
396,tsiombe,-25.3,45.4833,17.82,57,52,2.73,MG,1690325537
397,tidjikja,18.5564,-11.4271,35.7,24,36,5.11,MR,1690325537
398,pavilosta,56.8879,21.1859,15.95,86,100,3.8,LV,1690325537
399,irtyshsk,53.3333,75.4572,18.53,51,45,1.45,KZ,1690325538
400,miranda,3.2499,-76.2281,28.07,78,100,1.39,CO,1690325538
401,kapit,2.0167,112.9333,23.34,93,61,0.25,MY,1690325538
402,nebbi,2.4783,31.0889,20.22,78,97,1.6,UG,1690325539
403,tralee,52.2704,-9.7026,12.28,95,8,2.51,IE,1690325539
404,mashava,-20.0367,30.4823,11.08,95,100,1.41,ZW,1690325539
405,areia branca,-4.9561,-37.1369,27.48,57,36,9.29,BR,1690325540
406,murzuq,25.9155,13.9184,33.04,13,10,5.16,LY,1690325540
407,hilo,19.7297,-155.09,27.92,82,100,3.6,US,1690325354
408,le port,-20.9373,55.2919,20.0,86,55,1.83,RE,1690325366
409,jumla,29.2747,82.1838,17.09,94,100,0.43,NP,1690325541
410,port hedland,-20.3167,118.5667,13.03,71,14,4.63,AU,1690325541
411,porto seguro,-16.4497,-39.0647,23.29,88,75,5.14,BR,1690325541
412,alta,69.9689,23.2717,13.59,77,75,2.57,NO,1690325542
413,goundam,16.4145,-3.6708,32.32,43,55,2.77,ML,1690325542
414,chlmec,48.8863,21.9393,17.41,92,67,2.98,SK,1690325542
415,gamay,12.3854,125.2979,27.48,76,100,5.06,PH,1690325543
416,vegreville,53.5001,-112.0518,21.17,52,81,8.75,CA,1690325544
417,deder,9.3167,41.45,14.54,82,96,3.76,ET,1690325544
418,puerto quijarro,-17.7833,-57.7667,25.5,33,0,0.29,BO,1690325544
419,saraqib,35.8645,36.8059,27.28,36,0,3.89,SY,1690325545
420,ramnagar,29.4,79.1167,24.47,92,92,1.46,IN,1690325545
421,yeppoon,-23.1333,150.7333,21.25,67,10,8.0,AU,1690325546
422,rafiganj,24.8167,84.65,29.95,64,99,2.19,IN,1690325546
423,arkhangel'sk,64.5401,40.5433,13.0,94,68,1.76,RU,1690325255
424,glazunovka,52.4986,36.3275,20.67,53,78,6.74,RU,1690325546
425,nyrob,60.733,56.7202,13.79,88,86,1.27,RU,1690325547
426,capo d'orlando,38.1435,14.7305,29.67,87,11,3.38,IT,1690325547
427,yelizovo,53.1873,158.3805,20.08,77,20,2.0,RU,1690325547
428,covington,39.0837,-84.5086,32.18,56,0,3.09,US,1690325394
429,mazabuka,-15.856,27.748,16.69,39,5,5.13,ZM,1690325548
430,hirara,24.8,125.2833,28.15,83,75,8.75,JP,1690325360
431,kulhudhuffushi,6.6221,73.07,27.69,79,97,4.29,MV,1690325548
432,tevriz,57.509,72.4042,13.32,96,4,2.2,RU,1690325549
433,tuntum,-5.2581,-44.6489,26.41,43,11,0.91,BR,1690325549
434,kavieng,-2.5744,150.7967,27.38,81,94,6.75,PG,1690325549
435,dunedin,-45.8742,170.5036,7.67,60,43,5.36,NZ,1690325550
436,votuporanga,-20.4228,-49.9728,24.65,43,91,4.15,BR,1690325550
437,borzya,50.3833,116.5167,21.1,57,97,0.53,RU,1690325550
438,inarajan village,13.2736,144.7484,29.08,90,100,8.41,GU,1690325550
439,tuy hoa,13.0833,109.3,26.32,80,51,5.42,VN,1690325551
440,akureyri,65.6835,-18.0878,8.96,81,75,4.12,IS,1690325479
441,an muileann gcearr,53.5333,-7.35,12.6,94,60,2.16,IE,1690325551
442,sogndal,61.2283,7.1003,13.21,100,100,0.0,NO,1690325551
443,arraial do cabo,-22.9661,-42.0278,21.98,88,0,7.72,BR,1690325302
444,vodnyy,63.5046,53.4095,12.3,96,93,1.62,RU,1690325552
445,pimentel,-6.8367,-79.9342,25.16,57,75,5.14,PE,1690325553
446,manikchari,22.8408,91.844,24.14,96,54,1.32,BD,1690325553
447,qui nhon,13.7667,109.2333,25.65,84,8,3.01,VN,1690325553
448,camiri,-20.05,-63.5167,17.88,59,75,1.54,BO,1690325553
449,oroqen zizhiqi,50.5667,123.7167,19.48,86,96,0.85,CN,1690325553
450,cambria,35.5641,-121.0808,40.41,45,5,5.56,US,1690325554
451,bodo,67.28,14.405,17.1,85,0,3.09,NO,1690325320
452,east ballina,-28.8667,153.5833,13.22,76,90,3.39,AU,1690325554
453,suifenhe,44.4,131.1667,22.45,81,78,1.5,CN,1690325555
454,laguna,38.421,-121.4238,39.54,27,0,2.06,US,1690325555
455,baikonur,45.6167,63.3167,30.42,28,14,5.8,KZ,1690325555
456,katsuura,35.1333,140.3,27.45,80,47,2.92,JP,1690325556
457,bhimunipatnam,17.8833,83.4333,27.74,79,100,4.85,IN,1690325556
458,tolanaro,-25.0319,46.9987,19.04,68,20,3.09,MG,1690325556
459,salalah,17.0151,54.0924,26.05,94,100,4.12,OM,1690325556
460,tindouf,27.6711,-8.1474,32.25,12,0,9.26,DZ,1690325557
461,ouddorp,51.8117,3.9347,16.99,68,65,6.35,NL,1690325557
462,joao pinheiro,-17.7425,-46.1725,19.96,35,1,2.0,BR,1690325557
463,nosy varika,-20.5833,48.5333,19.55,89,46,4.49,MG,1690325557
464,merizo village,13.2658,144.6691,28.85,90,100,8.78,GU,1690325558
465,new plymouth,-39.0667,174.0833,9.06,67,99,3.23,NZ,1690325558
466,abu jibeha,11.4562,31.2285,24.84,77,95,2.46,SD,1690325558
467,revda,56.801,59.9303,14.97,72,86,1.46,RU,1690325458
468,alva,56.1528,-3.8051,14.01,89,77,0.94,GB,1690325559
469,turpan,42.9333,89.1667,34.24,15,94,2.85,CN,1690325559
470,zalingei,12.9096,23.4741,26.14,62,99,3.41,SD,1690325559
471,gaspe,48.8334,-64.4819,21.12,94,100,4.12,CA,1690325560
472,freetown,8.484,-13.2299,24.7,90,100,2.1,SL,1690325560
473,inirida,3.8653,-67.9239,23.09,98,97,0.33,CO,1690325560
474,hakodate,41.7758,140.7367,25.17,88,75,2.57,JP,1690325561
475,lospalos,-8.5186,127.0025,19.32,83,75,2.77,TL,1690325561
476,kirs,59.3388,52.2447,11.72,97,33,0.99,RU,1690325561
477,eleskirt,39.8033,42.6736,14.1,70,82,1.96,TR,1690325561
478,cudillero,43.5622,-6.1459,18.51,77,75,3.09,ES,1690325562
479,gannan,47.9147,123.5031,21.0,78,47,0.99,CN,1690325562
480,sullivan,36.5168,-82.5332,29.57,66,75,5.14,US,1690325562
481,neiafu,-18.65,-173.9833,24.38,69,75,0.0,TO,1690325562
482,turochak,52.2576,87.1224,13.96,96,65,1.04,RU,1690325563
483,al markaz,25.4,49.7333,32.33,29,100,1.42,SA,1690325563
484,altay,47.8667,88.1167,20.27,35,77,1.63,CN,1690325325
485,sungai raya,0.7,108.9,25.82,87,100,3.59,ID,1690325563
486,kencong,-8.2833,113.3667,21.55,93,80,0.68,ID,1690325564
487,ostersund,63.1792,14.6357,12.56,37,75,2.06,SE,1690325564
488,chegdomyn,51.1167,133.0167,18.74,97,100,1.62,RU,1690325564
489,happy valley-goose bay,53.3168,-60.3315,20.17,83,75,3.6,CA,1690325565
490,demre,36.2537,29.9777,30.28,22,0,3.32,TR,1690325565
491,margate,51.3813,1.3862,16.5,67,72,2.24,GB,1690325479
492,pangody,65.85,74.4859,18.77,74,94,5.65,RU,1690325566
493,lufkin,31.3382,-94.7291,37.4,38,40,1.54,US,1690325566
494,eraan,9.0629,117.7016,26.26,89,82,5.26,PH,1690325566
495,burang,30.25,81.1667,11.03,85,100,2.08,CN,1690325566
496,bartlesville,36.7473,-95.9808,36.97,44,0,4.12,US,1690325354
497,ilula,-7.6766,36.0366,14.94,63,0,3.54,TZ,1690325567
498,miles city,46.4083,-105.8406,36.54,14,0,3.6,US,1690325547
499,flin flon,54.7682,-101.865,24.91,50,75,5.14,CA,1690325567
500,mohammedia,33.7066,-7.3944,21.96,100,0,2.06,MA,1690325568
501,ghat,24.9647,10.1728,33.28,12,40,1.9,LY,1690325568
502,barra de santo antonio,-9.4047,-35.5072,24.6,83,62,3.32,BR,1690325568
503,careiro da varzea,-3.2003,-59.8119,32.35,45,3,1.01,BR,1690325569
504,road town,18.4167,-64.6167,27.05,88,40,1.54,VG,1690325368
505,opuwo,-18.0607,13.84,16.19,35,1,1.38,NA,1690325569
506,cromwell,41.5951,-72.6454,22.62,90,100,2.57,US,1690325448
507,conceicao da barra,-18.5933,-39.7322,21.22,92,61,3.12,BR,1690325472
508,dauphin,51.1494,-100.0502,26.08,83,40,5.14,CA,1690325575
509,nemuro,43.3236,145.575,17.29,97,89,0.25,JP,1690325575
510,pudozh,61.8099,36.5345,11.62,88,93,1.96,RU,1690325575
511,al jawf,29.5,38.75,29.23,18,18,4.35,SA,1690325575
512,monywa,22.1167,95.1333,28.1,71,72,5.23,MM,1690325576
513,uglegorsk,49.0833,142.0333,19.21,92,75,2.0,RU,1690325576
514,phan thiet,10.9333,108.1,24.63,93,92,4.58,VN,1690325576
515,kalat,29.0225,66.5916,19.76,80,99,0.68,PK,1690325576
516,rohru,31.2167,77.75,18.24,93,75,1.03,IN,1690325577
517,kapa'a,22.0752,-159.319,31.18,73,20,6.69,US,1690325577
518,dabat,12.9842,37.765,13.1,89,100,1.44,ET,1690325577
519,nogliki,51.8333,143.1667,14.94,94,99,3.55,RU,1690325353
520,neyshabur,36.2133,58.7958,27.01,17,0,1.49,IR,1690325578
521,vadso,70.0744,29.7487,9.49,93,100,2.57,NO,1690325578
522,yaren,-0.5472,166.916,27.97,80,88,4.85,NR,1690325315
523,oelwein,42.6733,-91.9135,33.12,70,93,0.45,US,1690325579
524,nacozari de garcia,30.3742,-109.6908,38.63,15,16,1.6,MX,1690325579
525,kidal,18.4411,1.4078,33.98,32,53,3.34,ML,1690325580
526,vryburg,-26.9566,24.7284,12.3,76,77,7.48,ZA,1690325580
527,sodankyla,67.4167,26.6,11.94,94,100,1.14,FI,1690325580
528,sisimiut,66.9395,-53.6735,7.49,81,64,4.77,GL,1690325580
529,badr hunayn,23.7829,38.7905,32.93,24,100,1.44,SA,1690325581
530,tutoia,-2.7619,-42.2744,26.22,79,71,5.23,BR,1690325581
531,lensk,60.7253,114.9278,22.07,62,11,1.83,RU,1690325581
532,kita,13.0349,-9.4895,24.37,93,92,1.64,ML,1690325581
533,skovorodino,53.9833,123.9167,21.48,61,71,0.34,RU,1690325582
534,katsuren-haebaru,26.3369,127.8719,29.01,86,75,5.66,JP,1690325582
535,prainha,-1.8,-53.48,27.64,52,37,1.85,BR,1690325583
536,sao gabriel da cachoeira,-0.1303,-67.0892,23.47,96,29,1.14,BR,1690325583
537,campbell river,50.0163,-125.2446,19.74,63,75,3.09,CA,1690325583
538,kaifeng,34.7911,114.3483,27.75,77,7,1.32,CN,1690325583
539,san mariano,7.5,126.0,24.93,84,92,1.16,PH,1690325584
540,as sulayyil,20.4607,45.5779,34.14,9,99,0.67,SA,1690325584
541,torchiarolo,40.4842,18.0525,32.11,55,41,5.72,IT,1690325584
542,fort-shevchenko,44.5086,50.263,24.29,68,67,5.91,KZ,1690325585
543,kayangel,8.0823,134.7173,25.35,88,100,4.43,PW,1690325300
544,sarmiento,-45.5882,-69.07,2.15,66,91,4.12,AR,1690325363
545,palikir - national government center,6.9248,158.1611,26.47,89,100,1.54,FM,1690325585
546,hithadhoo,-0.6,73.0833,28.1,79,98,7.0,MV,1690325586
547,lido di ostia,41.7321,12.2765,27.03,61,0,10.29,IT,1690325586
548,puerto lempira,15.2667,-83.7667,31.08,66,40,4.12,HN,1690325586
549,kattivakkam,13.2167,80.3167,26.15,90,100,5.15,IN,1690325587
550,port shepstone,-30.7414,30.455,15.74,83,100,4.58,ZA,1690325587
551,kisangani,0.5167,25.2,22.09,94,100,1.04,CD,1690325587
552,caxito,-8.5785,13.6643,18.78,94,3,0.96,AO,1690325587
553,jaguarari,-10.2639,-40.1958,19.19,72,20,3.6,BR,1690325588
554,tra mhor,52.1624,-7.1524,15.61,85,37,3.13,IE,1690325588
555,cadale,2.7603,46.3222,24.77,80,97,8.19,SO,1690325588
556,loa janan,-0.583,117.095,23.61,93,15,1.25,ID,1690325589
557,huaraz,-9.5333,-77.5333,14.55,47,10,2.47,PE,1690325590
558,termoli,41.9888,14.9895,23.1,69,10,1.42,IT,1690325590
559,frontera,26.9333,-101.45,37.16,24,3,2.68,MX,1690325590
560,mahmudabad,27.3,81.1167,27.84,79,100,2.84,IN,1690325591
561,ciudad lazaro cardenas,17.9583,-102.2,30.08,69,97,3.81,MX,1690325591
562,dawei,14.0833,98.2,24.13,95,99,0.89,MM,1690325592
563,bandarbeyla,9.4942,50.8122,23.73,83,12,14.82,SO,1690325592
564,selfoss,63.9331,-20.9971,11.69,88,100,2.3,IS,1690325592
565,entre rios,-11.9419,-38.0844,19.63,97,12,1.33,BR,1690325593
566,rio gallegos,-51.6226,-69.2181,-8.97,100,0,3.6,AR,1690325490
567,n'zeto,-7.2312,12.8666,20.59,92,4,3.21,AO,1690325593
568,tancitaro,19.3333,-102.3667,19.63,67,93,1.66,MX,1690325594
569,portland,45.5234,-122.6762,29.53,40,40,4.12,US,1690325481
570,taro,-8.3862,115.28,21.03,96,86,1.18,ID,1690325594
